[
	{
		"lat": 0,
		"long": -80,
		"name": "GiantSquid"
	},
	{
		"lat": -40,
		"long": -80,
		"name": "MeanWhale"
	},
	{
		"lat": -9.634028434753418,
		"long": -51.32735824584961,
		"name": "Drake"
	},
	{
		"lat": -10.379121780395508,
		"long": -52.20918655395508,
		"name": "Drake"
	},
	{
		"lat": -9.140857696533203,
		"long": -53.02985763549805,
		"name": "Drake"
	},
	{
		"lat": -9.298186302185059,
		"long": -52.297061920166016,
		"name": "Drake"
	},
	{
		"lat": -10.920928001403809,
		"long": -29.290136337280273,
		"name": "Eber"
	},
	{
		"lat": -9.786014556884766,
		"long": -28.432113647460938,
		"name": "Eber"
	},
	{
		"lat": -9.705986022949219,
		"long": -28.97867202758789,
		"name": "Eber"
	},
	{
		"lat": -7.916136264801025,
		"long": -29.193565368652344,
		"name": "Eber"
	},
	{
		"lat": 11.159272193908691,
		"long": -52.61961364746094,
		"name": "Sentinel"
	},
	{
		"lat": 11.048299789428711,
		"long": -52.06254196166992,
		"name": "Sentinel"
	},
	{
		"lat": 10.72117805480957,
		"long": -52.127708435058594,
		"name": "Sentinel"
	},
	{
		"lat": 10.83214282989502,
		"long": -52.684776306152344,
		"name": "Sentinel"
	},
	{
		"lat": 51.20568084716797,
		"long": 11.117899894714355,
		"name": "Ancient Fire Elemental"
	},
	{
		"lat": 25.108200073242188,
		"long": -2.1058428287506104,
		"name": "Elder Rock Elemental"
	},
	{
		"lat": 49.91639709472656,
		"long": -10.474928855895996,
		"name": "Kekeda"
	},
	{
		"lat": 50.20791244506836,
		"long": -10.686014175415039,
		"name": "Kekeda"
	},
	{
		"lat": -40,
		"long": 0,
		"name": "GentleWhale"
	},
	{
		"lat": -29.86882972717285,
		"long": -12.754734992980957,
		"name": "Yeti"
	},
	{
		"lat": 80,
		"long": 40,
		"name": "GiantSquid"
	},
	{
		"lat": -10.746271133422852,
		"long": 29.29779815673828,
		"name": "Buwaya"
	},
	{
		"lat": 12.13157844543457,
		"long": 50.24988555908203,
		"name": "Crystal Scoripion "
	},
	{
		"lat": -10.737228393554688,
		"long": 51.926170349121094,
		"name": "Hydra"
	},
	{
		"lat": -11.306093215942383,
		"long": 50.722415924072266,
		"name": "Hydra"
	},
	{
		"lat": -10.235136032104492,
		"long": 51.267181396484375,
		"name": "Hydra"
	},
	{
		"lat": -11.324457168579102,
		"long": 52.522804260253906,
		"name": "Hydra"
	},
	{
		"lat": 80,
		"long": 80,
		"name": "GentleWhale"
	},
	{
		"lat": 40,
		"long": 80,
		"name": "MeanWhale"
	}
]